,City,Cloudiness,Country,Date,Humidity,Lat,Lng,Max Temp,Wind Speed
0,puerto ayora,39,EC,1580266934,11,-0.74,-90.35,296.48,0.89
1,thompson,90,CA,1580266874,92,55.74,-97.86,261.15,2.6
2,tasiilaq,100,GL,1580267128,86,65.61,-37.64,272.15,11.8
3,illapel,17,CL,1580267129,89,-31.63,-71.17,285.69,0.87
4,kapaa,1,US,1580266921,61,22.08,-159.32,300.15,2.6
5,coquimbo,90,CL,1580266876,82,-29.95,-71.34,291.15,2.6
6,bengkulu,100,ID,1580267133,94,-3.8,102.27,295.62,6.09
7,sakaiminato,75,JP,1580267134,71,35.55,133.23,284.15,3.6
8,saint-joseph,40,RE,1580267000,60,-21.37,55.62,296.15,3.6
9,porto novo,59,BJ,1580267137,88,6.5,2.6,297.34,2.03
10,airai,55,TL,1580267138,49,-8.93,125.41,303.21,1.74
11,chuy,0,UY,1580267139,85,-33.7,-53.46,293.5,5.94
12,mount isa,75,AU,1580267141,100,-20.73,139.5,298.15,6.2
13,plettenberg bay,100,ZA,1580267142,80,-34.05,23.37,292.92,2.06
14,katsuura,75,JP,1580267143,67,35.13,140.3,290.37,5.1
15,bitkine,0,TD,1580267144,11,11.98,18.21,290.4,3.82
16,cape town,75,ZA,1580266674,100,-33.93,18.42,293.15,3.6
17,namibe,100,AO,1580267147,77,-15.2,12.15,297.12,3.49
18,kushima,20,JP,1580267148,38,31.46,131.23,288.15,2.1
19,bathsheba,40,BB,1580267149,78,13.22,-59.52,299.15,6.7
20,hermanus,89,ZA,1580267151,98,-34.42,19.23,291.48,0.45
21,saint-philippe,40,RE,1580266873,60,-21.36,55.77,296.15,3.6
22,upernavik,74,GL,1580267153,94,72.79,-56.15,247.4,3.23
23,tarauaca,100,BR,1580267155,91,-8.16,-70.77,296.79,1.23
24,bethel,75,US,1580267156,69,41.37,-73.41,276.48,7.2
25,eravur,100,LK,1580267157,71,7.77,81.61,299.4,3.23
26,lompoc,1,US,1580267158,47,34.64,-120.46,288.15,3.6
27,portland,90,US,1580267049,87,45.52,-122.68,283.15,2.51
28,albany,90,US,1580267083,73,42.6,-73.97,272.59,4.1
29,cabo san lucas,5,MX,1580267162,72,22.89,-109.91,294.26,2.6
30,solwezi,42,ZM,1580267163,95,-12.17,26.39,288.04,0.67
31,casimiro de abreu,20,BR,1580267165,100,-22.48,-42.2,297.15,1.0
32,bluff,100,NZ,1580267166,90,-46.6,168.33,285.93,7.15
33,mataura,96,NZ,1580266888,90,-46.19,168.86,285.93,7.15
34,hilo,1,US,1580267143,51,19.73,-155.09,300.15,3.6
35,guerrero negro,0,MX,1580267170,65,27.98,-114.06,290.63,8.8
36,kathmandu,20,NP,1580266761,81,27.72,85.32,284.15,0.22
37,port elizabeth,20,ZA,1580267172,82,-33.92,25.57,292.15,5.7
38,port alfred,60,ZA,1580266880,84,-33.59,26.89,292.59,1.79
39,valdobbiadene,90,IT,1580267174,100,45.9,11.99,279.82,0.5
40,dikson,100,RU,1580266871,95,73.51,80.55,245.34,6.43
41,chake chake,65,TZ,1580267177,84,-5.25,39.77,300.5,6.01
42,ostrovnoy,18,RU,1580267178,93,68.05,39.51,257.52,1.9
43,rikitea,100,PF,1580267179,78,-23.12,-134.97,299.7,2.78
44,constitucion,10,CL,1580266894,81,-35.33,-72.42,284.95,3.27
45,avarua,84,CK,1580266933,94,-21.21,-159.78,299.15,4.1
46,nizwa,0,OM,1580266942,72,22.93,57.53,282.93,0.16
47,castro,33,BR,1580267184,99,-24.79,-50.01,290.81,2.63
48,kalemie,100,CD,1580267185,96,-5.95,29.19,290.33,0.47
49,charters towers,100,AU,1580267187,81,-20.1,146.27,299.95,5.92
50,yellowknife,90,CA,1580267188,83,62.46,-114.35,254.26,2.6
51,saint-georges,0,GD,1580267189,83,12.06,-61.75,299.47,6.91
52,dumai,100,ID,1580267191,97,1.68,101.45,295.71,2.49
53,mahebourg,20,MU,1580267192,94,-20.41,57.7,296.48,3.1
54,georgetown,20,MY,1580267193,70,5.41,100.34,303.15,6.7
55,labuhan,92,ID,1580267194,66,-6.88,112.21,303.83,1.22
56,ponta do sol,20,PT,1580267196,77,32.67,-17.1,288.15,3.1
57,arman,100,RU,1580267197,95,59.7,150.17,259.09,3.46
58,saskylakh,100,RU,1580266929,98,71.92,114.08,249.73,3.47
59,geraldton,0,AU,1580266979,61,-28.77,114.6,298.15,6.7
60,bath,40,GB,1580267025,80,51.38,-2.36,279.15,7.2
61,bambous virieux,20,MU,1580267202,94,-20.34,57.76,296.48,3.1
62,nenjiang,0,CN,1580267203,81,49.18,125.22,259.91,3.75
63,rawson,0,AR,1580266980,59,-43.3,-65.1,288.58,8.02
64,vaini,75,TO,1580266925,88,-21.2,-175.2,300.15,2.1
65,zapadnaya dvina,96,RU,1580267207,94,56.26,32.07,272.89,3.52
66,nome,1,US,1580266947,62,64.5,-165.41,247.15,2.36
67,nikolsk,100,RU,1580267210,93,53.72,46.07,266.16,5.29
68,surt,0,LY,1580267211,69,31.21,16.59,284.72,2.79
69,olga,100,RU,1580267212,89,43.74,135.29,271.81,13.33
70,husavik,90,IS,1580267213,92,66.04,-17.34,267.15,5.1
71,codrington,0,AU,1580267215,63,-38.27,141.97,293.28,1.98
72,jinja,100,UG,1580267216,99,0.44,33.2,290.8,0.77
73,pacsa,90,HU,1580267217,93,46.72,17.01,275.15,2.1
74,mount gambier,0,AU,1580267218,23,-37.83,140.77,303.15,4.1
75,magadan,75,RU,1580266962,92,59.57,150.8,259.56,0.97
76,quatre cocos,20,MU,1580266958,94,-20.21,57.76,296.48,3.1
77,ubinskoye,97,RU,1580267222,95,55.31,79.68,250.85,5.26
78,lazaro cardenas,56,MX,1580267223,71,17.96,-102.2,294.58,0.78
79,khani,75,GE,1580267224,66,41.96,42.96,280.15,3.6
80,narsaq,38,GL,1580267226,72,60.92,-46.05,263.15,2.21
81,anadyr,75,RU,1580267227,84,64.75,177.48,256.15,3.0
82,pitimbu,20,BR,1580267228,88,-7.47,-34.81,299.15,3.1
83,thenzawl,0,IN,1580267229,87,23.32,92.75,286.15,2.6
84,bam,0,IR,1580267226,43,29.11,58.36,279.03,1.11
85,amapa,100,BR,1580267232,99,1.0,-52.0,295.78,0.91
86,kaitangata,100,NZ,1580267233,82,-46.28,169.85,290.37,0.89
87,tiksi,99,RU,1580267235,87,71.69,128.87,246.55,2.91
88,khatanga,98,RU,1580266922,97,71.97,102.5,248.56,0.25
89,oga,90,IT,1580267237,85,46.46,10.35,269.15,3.1
90,luderitz,0,NA,1580266954,78,-26.65,15.16,291.49,12.43
91,hobart,78,AU,1580267201,38,-42.88,147.33,298.15,5.7
92,shubarshi,90,KZ,1580267241,88,48.59,57.19,258.53,4.32
93,vaasa,90,FI,1580267242,97,63.08,21.67,273.71,2.1
94,rodez,90,FR,1580267243,93,44.5,2.58,278.15,4.6
95,ushuaia,75,AR,1580266861,81,-54.8,-68.3,279.15,13.9
96,luba,20,GQ,1580267005,83,3.46,8.55,298.15,2.6
97,busselton,32,AU,1580267247,27,-33.65,115.33,302.04,3.37
98,punta arenas,40,CL,1580267248,75,-53.15,-70.92,280.15,9.3
99,severo-kurilsk,100,RU,1580267249,85,50.68,156.12,269.76,1.49
100,morondava,12,MG,1580267226,94,-20.28,44.28,295.67,0.77
101,barrow,1,US,1580267252,74,71.29,-156.79,240.15,2.87
102,taoudenni,0,ML,1580267253,29,22.68,-3.98,290.46,4.86
103,joshimath,100,IN,1580267254,98,30.57,79.57,271.23,2.38
104,vila velha,75,BR,1580267256,88,-20.33,-40.29,300.93,5.7
105,pisco,90,PE,1580267257,78,-13.7,-76.22,297.15,4.6
106,torbay,90,CA,1580267113,100,47.67,-52.73,272.04,2.6
107,tevaitoa,48,PF,1580267259,64,-16.78,-151.5,302.1,1.39
108,atuona,32,PF,1580266871,79,-9.8,-139.03,300.32,6.09
109,bac lieu,97,VN,1580267262,57,9.29,105.72,301.85,4.09
110,chulman,22,RU,1580267263,94,56.85,124.91,252.86,1.19
111,rupert,40,US,1580267264,100,42.62,-113.68,274.15,3.6
112,vestmannaeyjar,0,IS,1580266969,66,63.44,-20.27,274.63,3.26
113,egvekinot,100,RU,1580267267,81,66.32,-179.17,252.06,0.33
114,winslow,1,US,1580267268,55,35.02,-110.7,275.15,2.1
115,sarangani,30,PH,1580267269,74,5.4,125.46,301.56,3.78
116,saint-francois,90,FR,1580267271,75,46.42,3.91,280.15,5.1
117,vila franca do campo,75,PT,1580267272,88,37.72,-25.43,290.15,10.8
118,shubarkuduk,73,KZ,1580267273,85,49.14,56.49,259.26,4.4
119,komsomolskiy,0,UZ,1580267274,74,40.43,71.72,272.15,3.1
120,puerto baquerizo moreno,16,EC,1580267276,87,-0.9,-89.6,298.06,4.33
121,asau,100,RO,1580267277,100,46.43,26.4,275.93,5.7
122,port-gentil,20,GA,1580267278,77,-0.72,8.78,301.3,3.16
123,saint george,1,US,1580267150,69,37.1,-113.58,281.48,0.62
124,nikolskoye,90,RU,1580267280,92,59.7,30.79,272.15,5.0
125,lata,40,PT,1580267282,93,40.16,-8.33,287.59,2.1
126,talnakh,75,RU,1580267001,78,69.49,88.4,261.15,7.0
127,ahipara,100,NZ,1580267016,88,-35.17,173.17,293.83,5.15
128,saldanha,92,ZA,1580267285,82,-33.01,17.94,292.15,4.1
129,hammerfest,100,NO,1580267286,72,70.66,23.68,263.15,14.4
130,attock,90,PK,1580267288,100,33.77,72.36,282.15,2.1
131,carnarvon,45,AU,1580267289,74,-24.87,113.63,300.15,8.7
132,nadym,100,RU,1580267290,93,65.53,72.52,251.6,8.52
133,pombas,49,CV,1580267292,73,17.15,-25.02,295.15,8.2
134,yar-sale,100,RU,1580267293,92,66.83,70.83,251.61,9.08
135,east london,0,ZA,1580267260,57,-33.02,27.91,293.65,4.97
136,tura,39,IN,1580267295,51,25.52,90.22,293.62,1.11
137,tuktoyaktuk,90,CA,1580267297,75,69.45,-133.04,244.15,2.6
138,jamestown,90,US,1580267298,92,42.1,-79.24,273.15,4.6
139,hambantota,75,LK,1580267299,100,6.12,81.12,295.15,1.0
140,sao filipe,11,CV,1580267300,67,14.9,-24.5,294.89,8.22
141,qaanaaq,100,GL,1580267302,92,77.48,-69.36,247.72,2.59
142,kapuskasing,75,CA,1580267232,84,49.42,-82.43,258.15,2.1
143,aksarka,100,RU,1580267255,94,66.56,67.8,249.46,2.3
144,tiznit,0,MA,1580267306,30,29.58,-9.5,285.83,3.0
145,muros,90,ES,1580267307,100,42.78,-9.06,287.59,4.6
146,inhambane,0,MZ,1580267308,64,-23.86,35.38,297.35,2.73
147,deputatskiy,100,RU,1580267310,68,69.3,139.9,243.58,1.76
148,agarak,8,AM,1580267311,55,39.21,46.54,272.68,4.94
149,coihaique,75,CL,1580267312,81,-45.58,-72.07,281.15,1.0
150,raudeberg,100,NO,1580267313,69,61.99,5.14,276.15,3.1
151,blackwater,100,AU,1580267314,55,-23.58,148.88,304.12,5.48
152,arinos,100,BR,1580267164,95,-15.92,-46.11,295.12,0.57
153,sao luis,75,BR,1580267317,100,-2.53,-44.3,298.15,2.1
154,portlethen,100,GB,1580267318,74,57.05,-2.13,277.04,3.1
155,hithadhoo,76,MV,1580267319,78,-0.6,73.08,300.44,7.01
156,east hemet,1,US,1580267321,44,33.74,-116.94,294.15,1.31
157,dillon,1,US,1580267322,93,34.42,-79.37,278.15,1.56
158,clarence town,75,AU,1580267323,74,-32.58,151.78,302.04,6.7
159,laguna,75,US,1580267324,93,38.42,-121.42,287.15,3.1
160,gemena,83,CD,1580267325,41,3.25,19.77,293.27,0.52
161,faanui,81,PF,1580267327,70,-16.48,-151.75,301.72,2.24
162,tongren,0,CN,1580267112,68,27.72,109.19,280.67,0.24
163,youghal,40,IE,1580267329,80,51.95,-7.85,277.15,6.2
164,santa rosa,40,PH,1580266953,74,14.31,121.11,302.04,31.9
165,khromtau,53,KZ,1580267332,85,50.25,58.43,255.63,2.4
166,te anau,76,NZ,1580267333,74,-45.42,167.72,287.1,4.41
167,salalah,0,OM,1580267334,22,17.02,54.09,291.15,6.7
168,ribeira grande,75,PT,1580267336,93,38.52,-28.7,290.15,6.7
169,yala,40,TH,1580267337,74,6.33,101.25,302.15,2.6
170,sosva,0,RU,1580267338,89,59.18,61.86,247.43,1.85
171,edson,1,CA,1580267339,79,53.58,-116.44,268.15,1.0
172,zyryanka,0,RU,1580267341,94,65.75,150.85,241.35,3.16
173,sitka,90,US,1580267342,86,57.05,-135.33,277.15,4.1
174,nouadhibou,25,MR,1580267250,43,20.93,-17.03,294.77,6.1
175,nanortalik,69,GL,1580267345,66,60.14,-45.24,268.93,6.65
176,kapit,71,MY,1580267346,68,2.02,112.93,303.02,1.24
177,high level,5,CA,1580267322,92,58.52,-117.14,259.15,1.6
178,souillac,20,MU,1580267348,94,-20.52,57.52,296.48,3.1
179,luanda,40,AO,1580267087,83,-8.84,13.23,300.15,2.6
180,talara,0,PE,1580267351,87,-4.58,-81.27,296.65,4.38
181,san antonio,1,US,1580267352,50,29.42,-98.49,287.15,4.6
182,trairi,67,BR,1580267354,89,-3.28,-39.27,296.57,0.76
183,provideniya,2,RU,1580267355,64,64.38,-173.3,253.15,1.0
184,longyearbyen,100,SJ,1580267356,89,78.22,15.64,253.98,2.25
185,butaritari,100,KI,1580267229,78,3.07,172.79,301.53,4.71
186,ust-tsilma,100,RU,1580267359,98,65.44,52.15,254.65,1.21
187,puerto madryn,0,AR,1580267360,52,-42.77,-65.04,287.46,5.89
188,rosarito,1,MX,1580267362,71,32.33,-117.03,290.15,2.1
189,providencia,5,MX,1580267364,30,28.72,-111.58,293.15,7.13
190,snasa,100,NO,1580267365,90,64.25,12.38,265.95,3.85
191,sao bento do sul,90,BR,1580267366,100,-26.25,-49.38,296.48,1.5
192,tual,57,ID,1580267367,78,-5.67,132.75,302.26,7.62
193,kharan,0,PK,1580267286,61,28.58,65.42,279.25,4.01
194,fort nelson,33,CA,1580267370,89,58.81,-122.7,261.09,1.22
195,peniche,75,PT,1580267371,100,39.36,-9.38,288.71,4.6
196,butembo,100,CD,1580267372,82,0.15,29.28,289.8,1.66
197,lamballe,75,FR,1580267374,93,48.47,-2.51,279.82,4.1
198,oranjestad,20,AW,1580267126,78,12.52,-70.03,300.15,5.1
199,mettur,0,IN,1580267376,78,11.8,77.8,295.12,0.73
200,talavera de la reina,100,ES,1580267377,94,39.96,-4.83,282.56,4.19
201,kodiak,90,US,1580267379,79,57.79,-152.41,268.15,8.7
202,prado,100,BR,1580267380,85,-17.34,-39.22,299.63,5.13
203,toguchin,100,RU,1580267381,94,55.24,84.39,266.32,7.15
204,viedma,9,AR,1580267382,86,-40.81,-63.0,286.77,2.12
205,buala,100,SB,1580267384,69,-8.14,159.59,303.56,3.37
206,karratha,87,AU,1580267385,75,-20.74,116.85,302.98,4.55
207,kahului,90,US,1580267282,73,20.89,-156.47,301.15,6.7
208,cayambe,75,EC,1580267387,87,0.05,-78.13,287.15,1.0
209,puerto del rosario,36,ES,1580267389,72,28.5,-13.86,290.15,3.1
210,naze,75,JP,1580267331,52,28.37,129.48,291.15,5.7
211,marquette,90,US,1580267265,85,46.53,-87.63,268.71,5.1
212,bredasdorp,100,ZA,1580267392,88,-34.53,20.04,292.15,2.15
213,norman wells,75,CA,1580266940,74,65.28,-126.83,243.15,4.1
214,prince rupert,90,CA,1580267395,75,54.32,-130.32,280.15,7.2
215,miracema do tocantins,87,BR,1580267396,95,-9.56,-48.4,296.28,1.05
216,ilovita,100,RO,1580267398,97,44.76,22.47,275.93,3.05
217,manokwari,100,ID,1580267399,64,-0.87,134.08,302.02,3.63
218,carnot,33,CF,1580267400,31,4.94,15.87,289.71,0.58
219,kristiansund,100,NO,1580267401,59,63.11,7.73,275.15,8.7
220,port hedland,83,AU,1580267403,67,-20.32,118.57,307.15,6.7
221,vaitape,81,PF,1580267405,70,-16.52,-151.75,301.72,2.24
222,sao gabriel da cachoeira,100,BR,1580267406,97,-0.13,-67.09,296.66,0.4
223,santiago del estero,10,AR,1580267408,49,-27.8,-64.26,300.07,4.52
224,kyaikkami,0,MM,1580267409,68,16.08,97.57,294.56,3.03
225,acapulco,5,MX,1580267345,69,16.86,-99.89,300.15,2.6
226,chokurdakh,100,RU,1580267412,97,70.63,147.92,244.48,4.74
227,nyrob,99,RU,1580267413,99,60.73,56.72,244.21,2.05
228,agirish,0,RU,1580267414,94,61.92,63.02,247.95,2.53
229,norsup,75,VU,1580267416,74,-16.07,167.38,303.15,4.1
230,lagos,44,NG,1580267418,88,6.58,3.75,299.15,1.71
231,palmer,90,US,1580267419,64,42.16,-72.33,275.15,4.1
232,skibbereen,40,IE,1580267421,80,51.55,-9.27,277.15,6.2
233,amiens,90,FR,1580267423,100,49.9,2.3,278.71,5.7
234,nioro,30,GM,1580267424,32,13.35,-15.75,294.14,2.13
235,nouakchott,53,MR,1580267425,13,18.09,-15.98,294.15,2.6
236,iqaluit,5,CA,1580267426,67,63.75,-68.51,240.37,6.7
237,new norfolk,87,AU,1580267429,38,-42.78,147.06,298.15,5.7
238,leningradskiy,100,RU,1580267431,95,69.38,178.42,251.48,1.57
239,bouillante,0,GP,1580267432,83,16.13,-61.77,296.15,0.5
240,mananjary,57,MG,1580267433,74,-21.22,48.33,298.26,3.13
241,nsunga,100,TZ,1580267435,94,-1.14,31.39,290.23,1.04
242,mugur-aksy,99,RU,1580267436,95,50.35,90.5,255.26,2.95
243,lavrentiya,0,RU,1580267437,67,65.58,-171.0,248.41,3.91
244,victoria,0,HK,1580267439,40,22.29,114.16,288.15,4.1
245,mar del plata,100,AR,1580267374,57,-38.0,-57.56,297.15,3.1
246,horki,100,BY,1580267442,93,54.29,30.98,272.13,5.85
247,serro,100,BR,1580267443,91,-18.6,-43.38,292.21,1.14
248,lucapa,100,AO,1580267445,96,-8.42,20.74,292.67,0.83
249,dubbo,33,AU,1580267446,20,-32.25,148.62,310.15,2.6
250,la ronge,90,CA,1580267447,92,55.1,-105.28,267.15,1.51
251,markova,100,UA,1580267449,98,48.68,24.41,273.84,1.4
252,cururupu,100,BR,1580267450,98,-1.83,-44.87,296.85,0.8
253,hobyo,25,SO,1580267452,72,5.35,48.53,295.99,7.49
254,fortuna,90,US,1580267453,87,40.6,-124.16,283.15,0.62
255,arraial do cabo,32,BR,1580267455,90,-22.97,-42.03,298.58,2.24
256,aklavik,75,CA,1580267456,74,68.22,-135.01,242.15,2.1
257,zalesovo,99,RU,1580267457,91,53.99,84.74,265.76,9.74
258,isangel,75,VU,1580267458,66,-19.55,169.27,302.15,2.1
259,belyy yar,40,RU,1580267460,92,53.6,91.39,262.15,3.0
260,calamar,20,CO,1580267461,83,10.25,-74.91,301.15,5.1
261,bonthe,56,SL,1580267462,89,7.53,-12.51,298.2,2.08
262,najran,5,SA,1580267463,39,17.49,44.13,282.15,2.02
263,esperance,90,AU,1580267465,83,-33.87,121.9,294.15,3.6
264,nantucket,90,US,1580267278,59,41.28,-70.1,276.48,5.1
265,kaina,0,NG,1580267468,11,12.64,8.59,287.07,3.07
266,angoche,100,MZ,1580267292,97,-16.23,39.91,295.87,1.97
267,keningau,75,MY,1580267284,74,5.34,116.16,304.15,3.1
268,svetlyy,75,RU,1580267472,86,54.67,20.13,277.15,6.0
269,tuban,92,ID,1580267473,66,-6.9,112.06,303.83,1.22
270,hingoli,0,IN,1580267474,54,19.72,77.15,293.14,4.62
271,lamu,61,KE,1580267476,81,-2.27,40.9,300.78,6.7
272,pandan,86,PH,1580267477,73,14.05,124.17,299.86,2.32
273,hasaki,20,JP,1580267478,76,35.73,140.83,288.15,6.2
274,ivangorod,100,RU,1580267479,88,59.37,28.22,274.21,6.71
275,pokrovsk,100,UA,1580267481,95,48.28,37.18,276.04,3.95
276,banda aceh,100,ID,1580267482,75,5.56,95.32,298.93,1.15
277,anastacio,0,BR,1580267483,86,-20.48,-55.81,296.6,1.69
278,mulchen,0,CL,1580267485,58,-37.72,-72.23,284.44,2.82
279,kota kinabalu,75,MY,1580267350,74,5.97,116.07,304.15,3.1
280,nemuro,75,JP,1580267488,79,43.32,145.57,271.15,3.1
281,tanout,0,NE,1580267284,9,14.97,8.89,290.62,4.52
282,alofi,75,NU,1580267491,79,-19.06,-169.92,302.15,1.5
283,muswellbrook,84,AU,1580267492,56,-32.27,150.9,302.98,2.57
284,princeton,75,US,1580267388,88,25.54,-80.41,295.15,1.71
285,pangnirtung,7,CA,1580267495,88,66.15,-65.71,239.4,1.9
286,kedgwick,0,CA,1580267496,95,47.64,-67.34,256.02,1.05
287,nalut,0,LY,1580267498,63,30.33,10.85,283.07,3.99
288,broome,90,US,1580267499,92,42.25,-75.83,272.59,4.1
289,san patricio,5,MX,1580267501,83,19.22,-104.7,297.15,2.6
290,saint anthony,90,US,1580267288,85,45.02,-93.22,266.48,2.1
291,polis,90,CY,1580267503,93,35.04,32.43,284.15,1.0
292,owensboro,90,US,1580267505,89,37.77,-87.11,274.26,3.6
293,inta,66,RU,1580267506,96,66.03,60.17,242.53,2.8
294,ancud,0,CL,1580267507,70,-41.87,-73.82,282.15,2.1
295,kilindoni,100,TZ,1580267508,80,-7.91,39.67,301.19,4.94
296,usinsk,71,RU,1580267510,98,65.99,57.53,243.31,4.24
297,daru,71,PG,1580267511,46,-9.08,143.21,307.79,2.5
298,panacan,20,PH,1580267512,55,9.25,118.41,304.15,6.2
299,taltal,0,CL,1580267514,90,-25.4,-70.48,290.3,1.1
300,salihli,0,TR,1580267515,76,38.48,28.15,279.24,2.12
301,kavieng,25,PG,1580267228,75,-2.57,150.8,302.16,3.11
302,valley,90,US,1580267517,92,45.13,-116.13,272.15,0.76
303,samana,45,DO,1580267519,96,19.21,-69.34,293.64,0.23
304,pokosnoye,100,RU,1580267520,93,55.53,101.05,260.13,1.58
305,cherskiy,100,RU,1580267521,96,68.75,161.3,242.77,2.55
306,the valley,20,AI,1580267487,83,18.22,-63.06,299.15,1.5
307,ambulu,100,ID,1580267523,72,-8.35,113.61,301.93,0.9
308,lebu,0,CL,1580267525,66,-37.62,-73.65,284.86,4.75
309,ayorou,51,NE,1580267284,8,14.73,0.92,293.96,3.43
310,bowen,75,AU,1580267527,74,-20.02,148.23,303.15,5.7
311,aitape,0,PG,1580267529,76,-3.14,142.35,301.4,5.68
312,alamosa,1,US,1580267530,62,37.47,-105.87,267.15,1.5
313,middle island,90,US,1580267531,59,40.88,-72.94,277.04,3.1
314,kungurtug,0,RU,1580267532,70,50.6,97.52,261.89,2.03
315,kavaratti,20,IN,1580267469,78,10.57,72.64,300.15,4.42
316,salekhard,100,RU,1580267535,83,66.53,66.6,246.57,4.4
317,tuatapere,100,NZ,1580267536,96,-46.13,167.68,285.23,1.35
318,oyama,20,JP,1580267537,76,36.3,139.8,289.82,5.7
319,lamar,90,US,1580267539,87,33.67,-95.58,283.15,6.2
320,pierre,90,US,1580267512,92,44.37,-100.35,272.04,2.1
321,cozumel,5,MX,1580267525,88,20.51,-86.95,298.15,1.5
322,aksu,0,CN,1580267542,64,41.12,80.26,268.57,1.14
323,hamilton,90,US,1580267359,80,39.18,-84.53,274.26,0.28
324,dingle,21,PH,1580267545,68,11.0,122.67,302.06,3.21
325,kochkurovo,98,RU,1580267546,95,54.04,45.42,266.67,4.49
326,shellbrook,90,CA,1580267547,100,53.22,-106.4,268.15,1.0
327,villa carlos paz,0,AR,1580267548,73,-31.42,-64.5,298.15,4.1
328,bolu,100,TR,1580267550,98,40.67,31.58,273.31,1.46
329,mazara del vallo,40,IT,1580267551,87,37.66,12.59,287.15,6.7
330,batangafo,25,CF,1580267552,22,7.3,18.28,292.23,1.73
331,svetlogorsk,100,BY,1580267553,93,52.63,29.73,273.36,4.42
332,bidor,40,MY,1580267555,94,4.11,101.29,299.15,1.19
333,esmeraldas,75,BR,1580267556,94,-19.76,-44.31,294.15,1.5
334,monte alegre,100,BR,1580267557,80,-2.01,-54.07,298.89,3.03
335,namtsy,1,RU,1580267558,58,62.72,129.67,234.15,1.0
336,carballo,100,ES,1580267419,87,43.21,-8.69,287.59,3.6
337,necochea,100,AR,1580267561,89,-38.55,-58.74,290.37,2.23
338,samfya,86,ZM,1580267562,97,-11.36,29.56,290.28,0.48
339,kismayo,33,SO,1580267563,79,-0.36,42.55,300.2,9.18
340,harper,61,LR,1580267565,91,4.38,-7.72,297.77,0.56
341,roma,90,US,1580267354,79,43.21,-75.46,271.48,3.6
342,katobu,17,ID,1580267567,65,-4.94,122.53,304.91,1.62
343,pevek,100,RU,1580267569,98,69.7,170.31,249.08,5.69
344,numan,0,NG,1580267284,22,9.47,12.03,292.05,1.49
345,dzaoudzi,100,YT,1580267571,94,-12.79,45.27,299.15,7.2
346,khasan,100,RU,1580267434,59,42.43,130.64,271.89,3.25
347,garowe,95,SO,1580267574,68,8.41,48.48,290.46,4.03
348,dunedin,100,NZ,1580267575,74,-45.87,170.5,291.48,3.13
349,maarianhamina,90,AX,1580267576,93,60.1,19.93,276.15,6.7
350,eganville,90,CA,1580267578,78,45.53,-77.1,265.15,3.1
351,kidal,2,ML,1580267579,11,18.44,1.41,292.87,3.05
352,dicabisagan,94,PH,1580267580,84,17.08,122.42,296.88,4.48
353,rio claro,0,BR,1580267468,100,-22.41,-47.56,293.15,1.0
354,piacabucu,0,BR,1580267583,75,-10.41,-36.43,299.2,3.54
355,fairbanks,1,US,1580267510,73,64.84,-147.72,243.71,2.1
356,teguise,73,ES,1580267508,63,29.06,-13.56,290.15,4.1
357,linxia,0,CN,1580267587,32,35.6,103.21,270.37,1.02
358,troitskoye,100,RU,1580267588,92,52.98,84.68,260.24,8.22
359,mae sot,0,TH,1580267589,68,16.72,98.57,297.59,1.0
360,port lincoln,0,AU,1580267590,25,-34.73,135.87,305.15,6.2
361,lagoa,12,PT,1580267517,91,39.05,-27.98,290.17,10.05
362,lakhdenpokhya,100,RU,1580267593,97,61.52,30.2,272.04,3.05
363,touros,20,BR,1580267594,88,-5.2,-35.46,299.15,2.1
364,vredendal,45,ZA,1580267595,87,-31.67,18.5,289.4,1.73
365,karasburg,8,NA,1580267597,18,-28.02,18.75,291.76,0.35
366,faya,40,SA,1580267598,87,18.39,42.45,285.15,6.2
367,college,1,US,1580267455,73,64.86,-147.8,243.71,2.03
368,majengo,95,TZ,1580267600,85,-5.15,38.98,297.5,2.95
369,olinda,75,BR,1580267545,74,-8.01,-34.86,301.15,3.1
370,bloemhof,44,ZA,1580267603,52,-27.65,25.61,288.82,4.32
371,poum,0,NC,1580267495,79,-20.23,164.02,299.63,8.84
372,kirakira,100,SB,1580267605,78,-10.45,161.92,301.49,0.98
373,belmonte,20,BR,1580267607,88,-15.86,-38.88,299.15,2.6
374,alexandria,67,EG,1580267354,74,31.22,29.96,286.57,3.54
375,stokmarknes,100,NO,1580267610,69,68.56,14.91,270.93,3.13
376,acari,100,PE,1580267611,88,-15.43,-74.62,292.73,1.66
377,vila do maio,94,CV,1580267612,49,15.13,-23.22,296.15,6.7
378,sistranda,75,NO,1580267613,74,63.73,8.83,275.15,6.2
379,high prairie,0,CA,1580267394,84,55.43,-116.49,264.33,2.04
380,kuusamo,100,FI,1580267616,84,65.97,29.18,260.15,4.1
381,vardo,100,NO,1580267617,65,70.37,31.11,267.69,7.83
382,ayagoz,21,KZ,1580267619,92,47.97,80.44,254.93,0.45
383,garissa,51,KE,1580267520,80,-0.45,39.64,297.72,2.78
384,uruzgan,0,AF,1580267405,57,32.83,66.0,257.4,4.53
385,point pedro,69,LK,1580267407,75,9.82,80.23,299.47,4.84
386,maridi,64,SS,1580267624,40,4.92,29.47,290.64,0.61
387,forssa,100,FI,1580267625,96,60.78,23.6,274.26,1.79
388,shenjiamen,84,CN,1580267626,68,29.96,122.3,280.23,11.07
389,klaksvik,0,FO,1580267627,100,62.23,-6.59,272.15,1.5
390,dossor,64,KZ,1580267629,85,47.53,52.98,269.06,5.95
391,manakara,77,MG,1580267630,80,-22.13,48.02,296.01,1.9
392,vangaindrano,17,MG,1580267631,86,-23.35,47.6,295.05,1.48
393,hermiston,1,US,1580267551,81,45.84,-119.29,281.48,3.1
394,praia da vitoria,75,PT,1580267634,88,38.73,-27.07,291.15,12.01
395,yamada,100,JP,1580267635,92,39.47,141.95,280.17,7.19
396,kathua,91,IN,1580267636,79,32.37,75.52,283.53,1.84
397,sabha,0,LY,1580267638,43,27.04,14.43,286.71,4.74
398,tuxpan,5,MX,1580267639,77,19.55,-103.4,292.15,1.05
399,ambilobe,100,MG,1580267640,92,-13.2,49.05,297.17,1.25
400,swan river,97,CA,1580267642,97,52.11,-101.27,262.18,1.45
401,ngawi,100,ID,1580267644,75,-7.4,111.45,302.27,0.47
402,aykhal,66,RU,1580267645,84,66.0,111.5,254.15,2.0
403,cabra,90,ES,1580267646,93,37.47,-4.44,283.15,1.08
404,terra santa,98,BR,1580267648,76,-2.1,-56.49,299.18,1.09
405,mineral wells,90,US,1580267390,80,32.81,-98.11,279.82,6.7
406,alta floresta,100,BR,1580267650,96,-9.88,-56.09,294.15,0.86
407,atambua,37,ID,1580267651,69,-9.11,124.89,302.22,2.95
408,karimnagar,21,IN,1580267653,55,18.43,79.15,296.74,1.92
409,sobolevo,100,RU,1580267483,95,54.43,31.9,271.8,5.19
410,ilulissat,100,GL,1580267445,59,69.22,-51.1,256.15,4.6
411,bandarbeyla,1,SO,1580267657,72,9.49,50.81,296.28,10.03
412,machali,0,CL,1580267658,78,-34.18,-70.67,285.5,0.33
413,khorramshahr,100,IR,1580267659,81,30.44,48.17,283.15,1.0
414,salair,100,RU,1580267660,92,54.23,85.8,264.19,6.23
415,rocha,0,UY,1580267486,86,-34.48,-54.33,289.53,4.56
416,pekan,20,MY,1580267663,78,3.48,103.4,301.15,2.1
417,olafsvik,0,IS,1580267664,76,64.89,-23.71,272.39,6.35
418,adrar,0,MR,1580267665,26,20.5,-10.07,293.48,5.34
419,iberia,90,US,1580267667,93,29.95,-91.75,288.15,3.6
420,baijiantan,67,CN,1580267668,88,45.63,85.18,260.86,2.95
421,ouadda,0,CF,1580267669,20,8.08,22.4,287.79,1.36
422,teguldet,100,RU,1580267670,95,57.31,88.17,266.13,2.54
423,sakakah,22,SA,1580267672,39,29.97,40.21,282.15,3.6
424,glenwood springs,1,US,1580267673,73,39.55,-107.32,269.26,1.5
425,santa isabel do rio negro,57,BR,1580267675,90,-0.41,-65.02,298.07,0.81
426,visnes,100,NO,1580267676,93,59.36,5.22,275.37,1.5
427,am timan,0,TD,1580267677,14,11.03,20.28,289.96,2.34
428,udachnyy,0,RU,1580267678,84,66.42,112.4,254.15,2.0
429,donduseni,34,MD,1580267680,87,48.24,27.61,275.06,4.22
430,clyde river,1,CA,1580267681,74,70.47,-68.59,242.15,2.1
431,koslan,0,RU,1580267682,96,63.46,48.9,249.61,1.93
432,ukiah,1,US,1580267683,71,39.15,-123.21,284.26,2.1
433,omboue,46,GA,1580267685,94,-1.57,9.26,297.57,0.78
434,paita,6,PE,1580267387,66,-5.09,-81.11,298.72,2.74
435,hovd,0,MN,1580267687,60,48.01,91.64,260.48,0.86
436,yangambi,99,CD,1580267688,67,0.81,24.43,294.22,1.03
437,imeni poliny osipenko,22,RU,1580267690,80,52.42,136.49,262.12,2.28
438,nabire,49,ID,1580267691,63,-3.37,135.48,303.69,2.67
439,derbent,92,RU,1580267692,80,42.07,48.29,280.08,0.43
440,nuuk,93,GL,1580267693,78,64.18,-51.72,261.15,5.7
441,jardim,0,BR,1580267498,91,-21.48,-56.14,295.42,2.15
442,sorland,80,NO,1580267696,79,67.67,12.69,272.72,7.34
443,grindavik,0,IS,1580267697,79,63.84,-22.43,271.15,3.1
444,bud,90,US,1580267698,93,39.45,-86.18,274.26,1.5
445,chapais,75,CA,1580267700,84,49.78,-74.85,257.15,3.1
446,hofn,61,IS,1580267701,59,64.25,-15.21,276.77,6.81
447,aizpute,100,LV,1580267702,100,56.72,21.6,277.15,3.6
448,trud,75,BG,1580267703,80,42.23,24.73,275.15,4.1
449,hagere selam,100,ET,1580267705,91,6.48,38.52,286.14,0.48
450,nerchinskiy zavod,0,RU,1580267706,78,51.31,119.61,259.51,0.91
451,qandala,0,SO,1580267707,57,11.47,49.87,292.15,2.26
452,yantzaza,27,EC,1580267708,96,-3.83,-78.76,286.46,1.97
453,mweka,57,CD,1580267710,82,-4.85,21.57,294.09,0.92
454,huarmey,100,PE,1580267510,75,-10.07,-78.15,295.35,1.35
455,arlit,100,NE,1580267712,9,18.74,7.39,295.13,3.51
456,yizheng,92,CN,1580267713,92,24.67,103.43,279.17,1.19
457,ayan,0,RU,1580267715,72,56.45,138.17,256.67,4.57
458,lesozavodsk,62,RU,1580267716,93,45.48,133.42,260.94,3.81
459,yining,20,CN,1580267717,59,29.04,114.56,281.76,0.42
460,naryan-mar,54,RU,1580267719,98,67.67,53.09,246.14,3.18
461,aswan,0,EG,1580267720,45,24.09,32.91,283.68,5.1
462,emerald,75,AU,1580267475,55,-23.53,148.17,304.15,5.1
463,djambala,100,CG,1580267722,89,-2.54,14.75,294.45,1.01
464,pangoa,100,PE,1580267723,99,-12.12,-73.0,294.6,0.65
465,kapoeta,100,SS,1580267725,64,4.77,33.59,297.9,1.36
466,praia,77,CV,1580267515,49,14.92,-23.51,296.15,7.2
467,umm lajj,0,SA,1580267727,45,25.02,37.27,287.65,3.16
468,solginskiy,99,RU,1580267729,95,61.05,41.34,259.34,2.36
469,vanderhoof,83,CA,1580267722,95,54.02,-124.02,267.85,1.69
470,laranjeiras,20,BR,1580267731,74,-10.81,-37.17,301.15,4.6
471,kutum,0,SD,1580267732,27,14.2,24.67,279.89,1.62
472,kikwit,3,CD,1580267734,76,-5.04,18.82,294.43,0.45
473,bullhead city,1,US,1580267735,31,35.15,-114.57,290.15,1.97
474,yumen,0,CN,1580267737,32,40.28,97.2,270.04,5.03
475,imbituba,40,BR,1580267738,100,-28.24,-48.67,297.15,2.1
476,cooma,29,AU,1580267740,30,-36.23,149.13,300.15,6.7
477,sola,83,VU,1580267741,78,-13.88,167.55,301.41,6.13
478,sungaipenuh,100,ID,1580267742,95,-2.08,101.38,289.36,2.26
479,longonjo,100,AO,1580267743,96,-12.91,15.25,288.48,0.41
480,kisangani,92,CD,1580267547,84,0.52,25.2,294.4,1.02
481,paamiut,83,GL,1580267746,56,61.99,-49.67,263.56,5.83
482,scottsbluff,1,US,1580267747,73,41.87,-103.67,274.15,1.5
483,strezhevoy,75,RU,1580267748,75,60.73,77.59,246.15,4.0
484,lasa,90,IT,1580267483,85,46.62,10.7,269.15,3.1
485,sebring,90,US,1580267751,76,27.5,-81.44,286.48,4.1
486,mayo,90,US,1580267752,65,38.89,-76.51,279.26,4.1
487,naron,20,ES,1580267753,87,43.52,-8.15,287.15,2.6
488,morganton,1,US,1580267755,80,35.75,-81.68,280.15,2.11
489,kodinsk,100,RU,1580267756,94,58.69,99.18,264.42,1.27
490,gazanjyk,0,TM,1580267757,48,39.24,55.52,275.61,2.31
491,srednekolymsk,0,RU,1580267759,96,67.45,153.68,238.84,3.96
492,zhoucun,75,CN,1580267760,100,36.82,117.82,272.15,2.0
493,ortega,40,CO,1580267761,83,3.94,-75.22,296.15,1.0
494,lagoa santa,75,BR,1580267763,94,-19.63,-43.89,294.15,1.5
495,cidreira,57,BR,1580267764,83,-30.18,-50.21,296.9,8.81
496,pacific grove,75,US,1580267765,93,36.62,-121.92,285.93,1.5
497,port keats,92,AU,1580267767,70,-14.25,129.55,304.92,6.51
498,batagay,6,RU,1580267769,73,67.63,134.63,240.67,1.82
499,verkhovye,81,RU,1580267770,93,52.81,37.24,268.77,3.26
500,badvel,5,IN,1580267771,71,14.75,79.05,297.14,2.61
501,flinders,40,AU,1580267716,54,-34.58,150.86,300.37,4.6
502,butia,1,BR,1580267770,87,-30.12,-51.96,293.76,3.25
503,roald,100,NO,1580267775,59,62.58,6.13,275.93,1.0
504,bahia blanca,100,AR,1580267776,59,-38.72,-62.27,291.5,7.59
505,gwadar,0,PK,1580267778,38,25.12,62.33,292.46,8.19
506,perth,0,AU,1580267161,54,-31.93,115.83,301.48,6.2
507,pronsk,94,RU,1580267780,97,54.1,39.61,272.59,1.79
508,demba,87,CD,1580267781,88,-5.51,22.27,294.14,1.07
509,ambon,20,ID,1580267694,50,-3.7,128.18,308.15,3.6
510,baykit,100,RU,1580267784,96,61.67,96.37,260.5,1.26
511,senanga,100,ZM,1580267785,89,-16.12,23.27,292.92,1.21
512,nam som,75,TH,1580267786,73,17.77,102.19,297.59,2.1
513,watertown,90,US,1580267491,59,42.37,-71.18,274.82,2.6
514,soyo,100,AO,1580267789,84,-6.13,12.37,299.8,1.56
515,san jose de sisa,20,PE,1580267790,100,-6.62,-76.69,290.15,1.5
516,kruisfontein,89,ZA,1580267791,78,-34.0,24.73,291.71,3.66
517,salym,63,RU,1580267793,97,60.06,71.48,244.29,2.65
518,pravia,75,ES,1580267732,100,43.49,-6.15,283.71,1.0
519,cabedelo,20,BR,1580267654,88,-6.98,-34.83,299.15,3.1
520,ahuimanu,75,US,1580267796,69,21.44,-157.84,301.15,4.1
521,san jeronimo,100,PE,1580267798,93,-11.95,-75.28,278.49,1.12
522,kollam,20,IN,1580267799,78,8.88,76.6,299.15,2.1
523,berdigestyakh,69,RU,1580267800,97,62.1,126.7,249.51,2.37
524,tulun,73,RU,1580267802,93,54.56,100.58,260.83,1.32
525,douentza,11,ML,1580267803,8,15.0,-2.95,290.98,1.6
526,honningsvag,0,NO,1580267804,66,70.98,25.97,267.45,12.86
527,srisailam,14,IN,1580267651,72,16.08,78.87,296.28,0.73
528,lulea,100,SE,1580267584,85,65.58,22.15,265.15,2.6
529,sinnamary,96,GF,1580267808,84,5.38,-52.95,299.95,8.31
530,padang,100,ID,1580267809,91,-0.95,100.35,293.33,0.18
531,atar,0,MR,1580267759,23,20.52,-13.05,294.87,6.32
532,monrovia,20,LR,1580267779,94,6.3,-10.8,297.15,1.98
533,kormilovka,40,RU,1580267814,75,55.0,74.1,248.15,3.0
534,misratah,0,LY,1580267815,56,32.38,15.09,288.65,3.33
535,henties bay,49,NA,1580267817,89,-22.12,14.28,290.93,0.45
536,roebourne,11,AU,1580267818,19,-20.78,117.13,313.1,6.55
537,pinega,81,RU,1580267819,90,64.7,43.39,254.1,1.73
538,puerto madero,40,MX,1580267820,88,14.72,-92.42,297.15,1.0
539,port hardy,90,CA,1580267821,81,50.7,-127.42,280.15,9.8
540,santa maria,99,BR,1580267640,94,-29.68,-53.81,296.15,3.1
541,san,100,ML,1580267702,5,13.3,-4.9,293.84,3.38
542,san mateo,40,PH,1580267825,74,14.7,121.12,302.04,31.9
543,berlevag,65,NO,1580267826,67,70.86,29.09,268.76,10.28
544,kiama,40,AU,1580267827,54,-34.68,150.87,302.59,4.6
545,corrente,100,BR,1580267829,98,-3.74,-43.34,296.51,0.83
546,boqueirao,40,BR,1580267830,88,-7.5,-36.13,297.15,4.1
547,nueva loja,31,EC,1580267831,82,0.08,-76.88,296.53,1.13
548,paraiso,88,CR,1580267710,96,9.84,-83.87,292.59,0.5
549,itarema,99,BR,1580267834,89,-2.92,-39.92,297.64,1.1
